{"type": "FeatureCollection", "features": [{"type": "Feature", "properties": {"name": "Chicago", "bar": null, "bar_url": null, "address": null, "start_time": null, "stop_time": null, "notes": ""}, "geometry": {"type": "Point", "coordinates": [-87.6297982, 41.8781136]}}, {"type": "Feature", "properties": {"name": "Huntsville", "bar": "InnerSpace Brewing Company", "bar_url": "https://innerspacebrewing.com/", "address": "2414 Clinton Ave W, Huntsville, AL 35805", "start_time": "06:00 pm", "stop_time": "09:00 pm", "notes": "<p>We will be set up inside the main area. Looking forward to seeing everyone there!</p><p>They do sell pizza! I recommend ordering early if you are wanting food.<br /><br />For more info, visit us on Facebook: <a target=\"_blank\" href=\"https://www.facebook.com/PuzzPintHSV\">https://www.facebook.com/PuzzPintHSV</a>.<br /> </p>"}, "geometry": {"type": "Point", "coordinates": [-86.5918229, 34.7284828]}}, {"type": "Feature", "properties": {"name": "Leeds", "bar": "White Swan (Next to City Varieties)", "bar_url": "https://whiteswanleeds.co.uk/", "address": "Swan Street, Leeds, LDS LS1 6LG", "start_time": "07:00 pm", "stop_time": "10:00 pm", "notes": "<p>We&#39;re excited to return to in-person puzzling after a couple of years of covid related online activities.</p><p>Come and join us!</p><p> </p>"}, "geometry": {"type": "Point", "coordinates": [-1.5424622, 53.7988198]}}, {"type": "Feature", "properties": {"name": "Los Angeles", "bar": null, "bar_url": null, "address": null, "start_time": null, "stop_time": null, "notes": ""}, "geometry": {"type": "Point", "coordinates": [-118.2436849, 34.0522342]}}, {"type": "Feature", "properties": {"name": "Ottawa", "bar": "Big Daddy\u2019s Bourbon Street Bistro", "bar_url": "https://bigdaddys.ca/", "address": "180 Cooper Street, Ottawa, ON ", "start_time": "07:00 pm", "stop_time": "10:00 pm", "notes": "<p>Trying a new spot!<br />They will reserve the second level for us. There&#39;s limited free parking at the hotel  you just need to let them know in the intercom it&#39;s for the restaurant. </p><p>Please let us know you&#39;re coming by getting free tickets on <a href=\"https://www.eventbrite.ca/e/puzzled-pint-ottawa-gatineau-chapter-tickets-203276675007\">eventbrite</a>  - it helps us know how many puzzles to print!</p><p>Kevin and Steph</p>"}, "geometry": {"type": "Point", "coordinates": [-75.6897573, 45.4188325]}}, {"type": "Feature", "properties": {"name": "Seattle", "bar": null, "bar_url": null, "address": null, "start_time": null, "stop_time": null, "notes": ""}, "geometry": {"type": "Point", "coordinates": [-122.3320708, 47.6062095]}}, {"type": "Feature", "properties": {"name": "Washington", "bar": null, "bar_url": null, "address": null, "start_time": null, "stop_time": null, "notes": ""}, "geometry": {"type": "Point", "coordinates": [-77.0368707, 38.9071923]}}]}